{
"type": "FeatureCollection",
"name": "media2014",
"crs": { "type": "name", "properties": { "name": "urn:ogc:def:crs:OGC:1.3:CRS84" } },
"features": [
{ "type": "Feature", "properties": { "id": 2, "titul": "Boskovicko", "podtitul": "Regionální noviny", "web": "www.boskovicko.cz", "prvniCislo": 1990, "distribuce": "Boskovice a okolí", "periodicita": "týdeník (pondělí)", "geoadresa": "Plačkova 383\/4, 680 01 Boskovice, Czechia" }, "geometry": { "type": "Point", "coordinates": [ 16.6600241, 49.4867585 ] } },
{ "type": "Feature", "properties": { "id": 3, "titul": "Nová Cesta Vysočinou (dříve Cesta Vysočinou; Cesta vrchovinou)", "podtitul": "Regionální týdeník", "web": "www.cestavysocinou.cz", "prvniCislo": 1960, "distribuce": "Pardubice, Lázně Bohdaneč, Přelouč, Kladruby nad Labem, Chrudim, Holice, Horní Jelení, Dašice, Sezemice, Opatovice, Ostřetín, Chvojenec, Horní Ředice, Dolní Ředice, Zdechovice, Vysoké Chvojno, Choltice, Chvaletice, Rohovládová Bělá, Živanice, Roveň, Ostře", "periodicita": "týdeník (úterý)", "geoadresa": "Jihlavská 1958, 580 01 Havlíčkův Brod, Czechia" }, "geometry": { "type": "Point", "coordinates": [ 15.579467, 49.6027384 ] } },
{ "type": "Feature", "properties": { "id": 4, "titul": "Dobrý den s Kurýrem", "podtitul": "Slovácký týdeník", "web": "www.idobryden.cz", "prvniCislo": 1999, "distribuce": "Uherskohradišťsko, Uherskobrodsko, Ostrožsko", "periodicita": "týdeník (pondělí)", "geoadresa": "Zelný trh 1245, 686 01 Uherské Hradiště, Czechia" }, "geometry": { "type": "Point", "coordinates": [ 17.4596348, 49.0689724 ] } },
{ "type": "Feature", "properties": { "id": 7, "titul": "Horácké noviny", "podtitul": "List západní Moravy", "web": "www.hornov.cz", "prvniCislo": 1990, "distribuce": "Okres Třebíč s přilehlými obcemi okresů Jihlava, Žďár nad Sázavou, Brno-venkov, Znojmo a Jindřichův Hradec", "periodicita": "obdeník (úterý, pátek)", "geoadresa": "Karlovo nám. 26\/20, Vnitřní Město, 674 01 Třebíč, Czechia" }, "geometry": { "type": "Point", "coordinates": [ 15.8819077, 49.2163737 ] } },
{ "type": "Feature", "properties": { "id": 8, "titul": "Horizont", "podtitul": "", "web": "www.ihorizont.cz", "prvniCislo": 1993, "distribuce": "2015: Třinec, Jablůnkov, Český Těšín a jejich spádové oblasti; 2019: Třinecko, Jablunovsko, ČeskoTěšínsko", "periodicita": "týdeník (úterý)", "geoadresa": "nám. Svobody 527, Lyžbice, 739 61 Třinec, Czechia" }, "geometry": { "type": "Point", "coordinates": [ 18.674929, 49.6693866 ] } },
{ "type": "Feature", "properties": { "id": 9, "titul": "Jesenický týdeník", "podtitul": "Nezávislé regionální noviny", "web": "www.jestyd.cz", "prvniCislo": 1991, "distribuce": "Okres Jeseník", "periodicita": "týdeník (úterý)", "geoadresa": "Husova 191\/2, 790 01 Jeseník, Czechia" }, "geometry": { "type": "Point", "coordinates": [ 17.2073401, 50.2322688 ] } },
{ "type": "Feature", "properties": { "id": 10, "titul": "Jihlavské listy", "podtitul": "Noviny kraje Vysočina", "web": "www.jihlavske-listy.cz", "prvniCislo": 1892, "distribuce": "Havlíčkův Brod, Humpolec, Golčův Jeníkov, Chotěboř, Světlá nad Sázavou, Ledeč nad Sázavou, Habry, Štoky, Ždírec nad Doubravou", "periodicita": "obdeník (úterý, pátek)", "geoadresa": "Fritzova 1552\/34, 586 01 Jihlava, Czechia" }, "geometry": { "type": "Point", "coordinates": [ 15.579463, 49.3997547 ] } },
{ "type": "Feature", "properties": { "id": 16, "titul": "Jiskra ", "podtitul": "Týdeník Benešovska, Vlašimska, Voticka, Posázaví a Středního Povltaví", "web": "www.jiskra-benesov.cz", "prvniCislo": 1956, "distribuce": "Benešovsko, Vlašimsko, Voticko, Posázaví, střední Povltaví", "periodicita": "čtrnáctideník (čtvrtek)", "geoadresa": "Žižkova 2040, 256 01 Benešov, Czechia" }, "geometry": { "type": "Point", "coordinates": [ 14.6841931, 49.7786152 ] } },
{ "type": "Feature", "properties": { "id": 17, "titul": "Kolínský týdeník pres", "podtitul": "Kolínské noviny", "web": "kolin.pres.cz", "prvniCislo": 1991, "distribuce": "Kolín", "periodicita": "týdeník (úterý)", "geoadresa": "Na Hradbách 93, Kolín I, 280 02 Kolín, Czechia" }, "geometry": { "type": "Point", "coordinates": [ 15.1985595, 50.0270771 ] } },
{ "type": "Feature", "properties": { "id": 18, "titul": "Lounský Press", "podtitul": "", "web": "www.ohremedia.cz\/lounsky-press", "prvniCislo": 1995, "distribuce": "Okres Louny", "periodicita": "týdeník (pondělí)", "geoadresa": "Jakoubkova 586, 440 01 Louny, Czechia" }, "geometry": { "type": "Point", "coordinates": [ 13.7984785, 50.3564786 ] } },
{ "type": "Feature", "properties": { "id": 20, "titul": "Mělnicko", "podtitul": "", "web": "www.melnicko.cz", "prvniCislo": 1998, "distribuce": "Polabí, povltaví, středočeský kraj, Mělník, Mšeno, Neratovice, Kostelec nad Labem, Brandýs - Stará Boleslav, Praha, Odolena Voda, Kralupy", "periodicita": "měsíčník", "geoadresa": "Nová 209\/13, 276 01 Mělník, Czechia" }, "geometry": { "type": "Point", "coordinates": [ 14.4783151, 50.3520208 ] } },
{ "type": "Feature", "properties": { "id": 22, "titul": "Nástup", "podtitul": "Soukromý regionální týdeník Chomutovska, Jirkovska, Kadaňska, Klášterecka a Vejprtska", "web": "www.nastup.cz", "prvniCislo": 1960, "distribuce": "Okres Chomutov", "periodicita": "týdeník (středa)", "geoadresa": "nám. 1. Máje 91, 430 01 Chomutov, Czechia" }, "geometry": { "type": "Point", "coordinates": [ 13.418211, 50.460174 ] } },
{ "type": "Feature", "properties": { "id": 26, "titul": "Nové noviny", "podtitul": "", "web": "www.jicinskozpravy.cz", "prvniCislo": 1997, "distribuce": "Jičínsko, Hořicko, Novopacko", "periodicita": "týdeník (pátek)", "geoadresa": "Husova 152, Valdické Předměstí, 506 01 Jičín, Czechia" }, "geometry": { "type": "Point", "coordinates": [ 15.3588241, 50.4361422 ] } },
{ "type": "Feature", "properties": { "id": 27, "titul": "Nové Slovácko (dříve Naše Slovácko)", "podtitul": "", "web": "www.islovacko.cz", "prvniCislo": 2006, "distribuce": "Břeclav, Podluží, Lednicko-valtický areál", "periodicita": "čtrnáctideník", "geoadresa": "Masarykovo nám. 34\/3, 697 01 Kyjov, Czechia" }, "geometry": { "type": "Point", "coordinates": [ 17.1226289, 49.0105997 ] } },
{ "type": "Feature", "properties": { "id": 29, "titul": "Obzory Kutnohorska", "podtitul": "", "web": "kutnahora.pres.cz", "prvniCislo": 1990, "distribuce": "Kutná Hora, Čáslav a okolí", "periodicita": "", "geoadresa": "Vladislavova 331\/7, Vnitřní Město, 284 01 Kutná Hora, Czechia" }, "geometry": { "type": "Point", "coordinates": [ 15.2689525, 49.9501773 ] } },
{ "type": "Feature", "properties": { "id": 30, "titul": "Orlický týdeník", "podtitul": "Regionální zpravodajství z Rychnovska, Dobrušska a Kostelecka", "web": "www.orlickytydenik.cz", "prvniCislo": 1959, "distribuce": "Rychnovsko, Dobrušsko, Kostelecko", "periodicita": "týdeník (úterý)", "geoadresa": "Školní nám. 34, 516 01 Rychnov nad Kněžnou, Czechia" }, "geometry": { "type": "Point", "coordinates": [ 16.2774748, 50.1639967 ] } },
{ "type": "Feature", "properties": { "id": 31, "titul": "Ozvěny jihozápadní Moravy", "podtitul": "Noviny občanů Dačicka, Slavonicka, Jemnicka a Telče", "web": "ozveny.dacicko.cz", "prvniCislo": 2001, "distribuce": "Dačicko, Slavonicko, Jemnicko, Studená, Telč", "periodicita": "měsíčník", "geoadresa": "Vápovská 237, Dačice III, 380 01 Dačice, Czechia" }, "geometry": { "type": "Point", "coordinates": [ 15.4462987, 49.081206 ] } },
{ "type": "Feature", "properties": { "id": 32, "titul": "Periskop", "podtitul": "Soukromé noviny Příbramska", "web": "www.periskop-pribram.cz", "prvniCislo": 1990, "distribuce": "Příbram, Dobříš, Sedlčany, Březnicko a Rožmitálsko, Mníšek pod Brdy a okolí", "periodicita": "týdeník (pátek)", "geoadresa": "Dlouhá 168, Příbram II, 261 01 Příbram, Czechia" }, "geometry": { "type": "Point", "coordinates": [ 14.014109, 49.6883637 ] } },
{ "type": "Feature", "properties": { "id": 33, "titul": "Podbrdské noviny", "podtitul": "", "web": "www.podbrdskenoviny.cz", "prvniCislo": 1990, "distribuce": "Podbrdsko", "periodicita": "čtrnáctideník (lichý čtvrtek)", "geoadresa": "Vrbnovská 22\/2, 268 01 Hořovice, Czechia" }, "geometry": { "type": "Point", "coordinates": [ 13.9089024, 49.8376277 ] } },
{ "type": "Feature", "properties": { "id": 34, "titul": "Polabský občasník TOK (dříve Polabský týdeník TOK)", "podtitul": "", "web": "www.itok.cz", "prvniCislo": 2000, "distribuce": "Praha-východ", "periodicita": "občasník", "geoadresa": "P. Jilemnického 12, 250 01 Brandýs nad Labem-Stará Boleslav, Czechia" }, "geometry": { "type": "Point", "coordinates": [ 14.6578093, 50.1874455 ] } },
{ "type": "Feature", "properties": { "id": 35, "titul": "Princip", "podtitul": "Týdeník", "web": "www.principdc.cz", "prvniCislo": 1992, "distribuce": "Okres Děčín", "periodicita": "týdeník (pátek)", "geoadresa": "Fügnerova 600\/12, 405 02 Děčín, Czechia" }, "geometry": { "type": "Point", "coordinates": [ 14.2165974, 50.7779977 ] } },
{ "type": "Feature", "properties": { "id": 36, "titul": "Prostějovský večerník", "podtitul": "", "web": "www.vecernikpv.cz", "prvniCislo": 1997, "distribuce": "Okres Prostějov", "periodicita": "týdeník (pondělí)", "geoadresa": "Olomoucká 2616\/10, 796 01 Prostějov, Czechia" }, "geometry": { "type": "Point", "coordinates": [ 17.1164564, 49.4745096 ] } },
{ "type": "Feature", "properties": { "id": 37, "titul": "Raport", "podtitul": "Týdeník pro Rakovnicko a Novostrašecko", "web": "www.raport.cz", "prvniCislo": 1991, "distribuce": "Rakovnicko, Novostrašecko", "periodicita": "týdeník (úterý)", "geoadresa": "Ottova 418, Rakovník II, 269 01 Rakovník, Czechia" }, "geometry": { "type": "Point", "coordinates": [ 13.7259762, 50.100203 ] } },
{ "type": "Feature", "properties": { "id": 38, "titul": "Region Opavsko", "podtitul": "", "web": "www.regionopavsko.cz", "prvniCislo": 2007, "distribuce": "Opava, Třinec, Jablůnkov, Český Těšín a jejich spádové oblasti", "periodicita": "týdeník (pondělí)", "geoadresa": "Ostrožná 208\/4, Město, 746 01 Opava, Czechia" }, "geometry": { "type": "Point", "coordinates": [ 17.9028091, 49.9380097 ] } },
{ "type": "Feature", "properties": { "id": 39, "titul": "Region Podbořanska", "podtitul": "", "web": "www.ohremedia.cz\/region-podboranska", "prvniCislo": 1999, "distribuce": "Podbořany a okolní obce", "periodicita": "týdeník (středa)", "geoadresa": "Dvořákova 12, 438 01 Žatec, Czechia" }, "geometry": { "type": "Point", "coordinates": [ 13.5441908, 50.3281435 ] } },
{ "type": "Feature", "properties": { "id": 40, "titul": "RegionPress (dříveTýdeník RegionPress)", "podtitul": "Nezávislý zpravodajský čtrnáctideník regionu Blansko", "web": "www.regionpress.cz", "prvniCislo": 2005, "distribuce": "Boskovicko, Blanensko", "periodicita": "čtrnáctideník (středa)", "geoadresa": "Bezručova 166\/16, 680 01 Boskovice, Czechia" }, "geometry": { "type": "Point", "coordinates": [ 16.6598178, 49.4903117 ] } },
{ "type": "Feature", "properties": { "id": 41, "titul": "Sedlčanský kraj", "podtitul": "", "web": "www.sedlcansky-kraj.cz", "prvniCislo": 1990, "distribuce": "Sedlčany, Kosova Hora, Jesenice, Radič, Svatý Jan, Nedrahovice, Příčovy, Kňovice, Prosenická Lhota, Vojkov, Svatý Jan", "periodicita": "týdeník (středa)", "geoadresa": "Havlíčkova 514, 264 01 Sedlčany, Czechia" }, "geometry": { "type": "Point", "coordinates": [ 14.4206988, 49.6597661 ] } },
{ "type": "Feature", "properties": { "id": 42, "titul": "Slánské listy", "podtitul": "", "web": "www.slanskelisty.cz", "prvniCislo": 1993, "distribuce": "Slánsko, Kladensko, Rakovnicko, Litoměřicko, Praha-západ", "periodicita": "měsíčník", "geoadresa": "Masarykovo nám. 141, 274 01 Slaný, Czechia" }, "geometry": { "type": "Point", "coordinates": [ 14.0877057, 50.2313312 ] } },
{ "type": "Feature", "properties": { "id": 43, "titul": "Svobodný hlas", "podtitul": "", "web": "www.svobodnyhlas.cz", "prvniCislo": 1991, "distribuce": "Okres Louny", "periodicita": "týdeník (středa)", "geoadresa": "Česká 177, 440 01 Louny, Czechia" }, "geometry": { "type": "Point", "coordinates": [ 13.7986375, 50.3562736 ] } },
{ "type": "Feature", "properties": { "id": 44, "titul": "Týden na severu", "podtitul": "", "web": "www.ityden.cz", "prvniCislo": 2004, "distribuce": "Šumpersko, Mohelnicko, Zábřežsko, Hanušovicko, Staroměstsko, Štíty ", "periodicita": "týdeník (úterý)", "geoadresa": "Třebízského 1514\/12, 787 01 Šumperk, Czechia" }, "geometry": { "type": "Point", "coordinates": [ 16.9696093, 49.9611675 ] } },
{ "type": "Feature", "properties": { "id": 45, "titul": "Týdeník Břeclavsko", "podtitul": "", "web": "www.tydenik-breclavsko.cz", "prvniCislo": 1998, "distribuce": "Břeclav, Podluží, Lednicko-valtický areál", "periodicita": "týdeník (středa)", "geoadresa": "nám. T. G. Masaryka 3048\/10a, 690 02 Břeclav, Czechia" }, "geometry": { "type": "Point", "coordinates": [ 16.8796096, 48.7593062 ] } },
{ "type": "Feature", "properties": { "id": 46, "titul": "Týdeník Homér", "podtitul": "", "web": "www.homerlive.cz", "prvniCislo": 1996, "distribuce": "Okres Most, Žatec a okolí", "periodicita": "týdeník (čtvrtek)", "geoadresa": "Bělehradská 360\/6, 434 01 Most, Czechia" }, "geometry": { "type": "Point", "coordinates": [ 13.6458617, 50.5065657 ] } },
{ "type": "Feature", "properties": { "id": 47, "titul": "Týdeník Jalovec", "podtitul": "", "web": "www.jalovec.cz", "prvniCislo": 2004, "distribuce": "Okres Vsetín, Zlín a okolí, Vizovice, Nový Jičín, Frenštát p. R., Frýdek-Místek", "periodicita": "týdeník (pondělí)", "geoadresa": "Na Příkopě 814, 755 01 Vsetín, Czechia" }, "geometry": { "type": "Point", "coordinates": [ 17.9912266, 49.3383538 ] } },
{ "type": "Feature", "properties": { "id": 48, "titul": "Týdeník Kroměřížska", "podtitul": "", "web": "www.tydenik-km.cz", "prvniCislo": 2000, "distribuce": "Kroměřížsko, Šumpersko, Zábřežsko, Mohlenicko, Hanušovicko, Staroměstsko", "periodicita": "týdeník (úterý)", "geoadresa": "Velehradská 507\/41, 767 01 Kroměříž, Czechia" }, "geometry": { "type": "Point", "coordinates": [ 17.3906436, 49.2941765 ] } },
{ "type": "Feature", "properties": { "id": 49, "titul": "Týdeník Milevské noviny", "podtitul": "", "web": "www.jihocesketydeniky.cz", "prvniCislo": 1990, "distribuce": "Milevsko, Zhoř, Bernartice, Borovany, Božetice, Branice, Hrazany, Hrejkovice, Chyšky, Jetětice, Jickovice, Kovářov, Křižanov, Kučeř, Květov, Okrouhlá, Osek, Přeštěnice, Stehlovice, Veselíčko, Vlksice, Zbelítov, Zběšičky, Přeborov, Sepekov", "periodicita": "týdeník (středa)", "geoadresa": "Gen. Svobody 479\/2, 399 01 Milevsko, Czechia" }, "geometry": { "type": "Point", "coordinates": [ 14.3626232, 49.4486598 ] } },
{ "type": "Feature", "properties": { "id": 50, "titul": "Týdeník Pernštejn", "podtitul": "2009: Pro Pardubicko a Chrudimsko; 2014, 2019: Noviny Pardubického regionu", "web": "www.tydenikpernstejn.cz", "prvniCislo": 1992, "distribuce": "Pardubice a okolí", "periodicita": "týdeník (pondělí)", "geoadresa": "Palackého tř. 250, 530 02 Pardubice I-Zelené Předměstí, Czechia" }, "geometry": { "type": "Point", "coordinates": [ 15.7620468, 50.0355032 ] } },
{ "type": "Feature", "properties": { "id": 51, "titul": "Týdeník Písecké postřehy", "podtitul": "", "web": "www.jcted.cz\/pisecke-postrehy", "prvniCislo": 1992, "distribuce": "Okres Písek", "periodicita": "týdeník (středa)", "geoadresa": "Velké nám. 6\/14, Vnitřní Město, 397 01 Písek, Czechia" }, "geometry": { "type": "Point", "coordinates": [ 14.1480843, 49.3086687 ] } },
{ "type": "Feature", "properties": { "id": 52, "titul": "Týdeník Prostějovska", "podtitul": "", "web": "www.itydenik.cz", "prvniCislo": 2008, "distribuce": "Okres Prostějov", "periodicita": "týdeník (středa)", "geoadresa": "Palackého tř. 810\/110, 612 00 Brno-Královo Pole, Czechia" }, "geometry": { "type": "Point", "coordinates": [ 16.5940952, 49.2255291 ] } },
{ "type": "Feature", "properties": { "id": 53, "titul": "Týdeník Strakonicko", "podtitul": "", "web": "www.jihocesketydeniky.cz", "prvniCislo": 2009, "distribuce": "Okres Strakonice", "periodicita": "týdeník (středa)", "geoadresa": "Palackého náměstí 91, Strakonice 38601" }, "geometry": { "type": "Point", "coordinates": [ 13.9055942, 49.2599497 ] } },
{ "type": "Feature", "properties": { "id": 54, "titul": "Týdeník Táborsko", "podtitul": "", "web": "www.jihocesketydeniky.cz", "prvniCislo": 1997, "distribuce": "Okres Tábor", "periodicita": "týdeník (středa)", "geoadresa": "Tyršova 1004\/2, 390 02 Tábor, Czechia" }, "geometry": { "type": "Point", "coordinates": [ 14.6702509, 49.4123921 ] } },
{ "type": "Feature", "properties": { "id": 55, "titul": "Vox", "podtitul": "Noviny regionu Tišnovsko", "web": " www.vox-cz.cz", "prvniCislo": 1992, "distribuce": "Tišnovsko", "periodicita": "čtrnáctideník (čtvrtek)", "geoadresa": "nám. Komenského 122, 666 01 Tišnov, Czechia" }, "geometry": { "type": "Point", "coordinates": [ 16.4218882, 49.3491198 ] } },
{ "type": "Feature", "properties": { "id": 56, "titul": "Znojemsko", "podtitul": "Regionální noviny", "web": "www.znojemsko.cz", "prvniCislo": 1919, "distribuce": "Okres Znojmo", "periodicita": "týdeník (úterý)", "geoadresa": "Jarošova 1241\/7, 669 02 Znojmo, Czechia" }, "geometry": { "type": "Point", "coordinates": [ 16.0549725, 48.8595217 ] } },
{ "type": "Feature", "properties": { "id": 57, "titul": "Znojemský týden", "podtitul": "Noviny pro jihomoravský region", "web": "www.znoj-tyden.cz", "prvniCislo": 2001, "distribuce": "Znojmo, Třebíčsko, Břeclavsko, Brněnsko", "periodicita": "týdeník (pondělí)", "geoadresa": "Pontassievská 944\/10, 669 02 Znojmo, Czechia" }, "geometry": { "type": "Point", "coordinates": [ 16.0529152, 48.8558319 ] } },
{ "type": "Feature", "properties": { "id": 58, "titul": "Zrcadlo Blanenska a Boskovicka", "podtitul": "", "web": "www.zrcadlo.net", "prvniCislo": 2007, "distribuce": "Okres Blansko", "periodicita": "týdeník ", "geoadresa": "Sokolská 221\/13, 680 01 Boskovice, Czechia" }, "geometry": { "type": "Point", "coordinates": [ 16.6587033, 49.4912563 ] } },
{ "type": "Feature", "properties": { "id": 59, "titul": "Žatecké noviny", "podtitul": "", "web": "zateckenoviny.ohremedia.cz", "prvniCislo": 1990, "distribuce": "Žatec a okolí", "periodicita": "týdeník (pátek)", "geoadresa": "Dvořákova 12, 438 01 Žatec, Czechia" }, "geometry": { "type": "Point", "coordinates": [ 13.5441908, 50.3281435 ] } }
]
}
